[
  {
    "region": 1,
    "departamento": "BERISSO",
    "localidad": "BERISSO",
    "distrito": "BERISSO",
    "escuela": "EEST Nº 1",
    "nombre": "LIBERTADOR GRAL. JOSÉ DE SAN MARTÍN",
    "cue": 60883100,
    "direccion": "122 ENTRE 80 Y 81",
    "lat": -34.92397112,
    "lng": -57.90386542
  },
  {
    "region": 1,
    "departamento": "BERISSO",
    "localidad": "BERISSO",
    "distrito": "BERISSO",
    "escuela": "EEST Nº 2",
    "nombre": "ING. EMILIO REBUELTO",
    "cue": 61135100,
    "direccion": "12 Y 169",
    "lat": -34.86843798,
    "lng": -57.88099039
  },
  {
    "region": 1,
    "departamento": "BRANDSEN",
    "localidad": "CORONEL BRANDSEN",
    "distrito": "BRANDSEN",
    "escuela": "EEST Nº 1",
    "nombre": "ING. JOSÉ RAFAEL CANTÓN",
    "cue": 60842400,
    "direccion": "CALLE 119 Nº 3421 ENTRE 11 Y 12",
    "lat": -35.16979545,
    "lng": -58.22424146
  },
  {
    "region": 1,
    "departamento": "ENSENADA",
    "localidad": "ENSENADA",
    "distrito": "ENSENADA",
    "escuela": "EEST Nº 1",
    "nombre": "ALMIRANTE GUILLERMO BROWN",
    "cue": 60712200,
    "direccion": "ECUADOR ENTRE 25 DE MAYO Y BOSINGA",
    "lat": -34.85975871,
    "lng": -57.91409795
  },
  {
    "region": 1,
    "departamento": "ENSENADA",
    "localidad": "ENSENADA",
    "distrito": "ENSENADA",
    "escuela": "EEST Nº 2",
    "nombre": "SANTIAGO DE LINIERS",
    "cue": 61027200,
    "direccion": "HORACIO CESTINO ENTRE SAENZ PEÑA Y GUEMES",
    "lat": -34.86988265,
    "lng": -57.9104281
  },
  {
    "region": 1,
    "departamento": "LA PLATA",
    "localidad": "LA PLATA",
    "distrito": "LA PLATA",
    "escuela": "EEST Nº 1",
    "nombre": "DR. VALENTÍN VERGARA",
    "cue": 61138200,
    "direccion": "AV. 7 ENTRE 32 Y 33",
    "lat": -34.90118938,
    "lng": -57.96768511
  },
  {
    "region": 1,
    "departamento": "LA PLATA",
    "localidad": "VILLA ELISA",
    "distrito": "LA PLATA",
    "escuela": "EEST Nº 2",
    "nombre": "REPÚBLICA DE ITALIA",
    "cue": 60624200,
    "direccion": "6 Y 51",
    "lat": -34.85007168,
    "lng": -58.0878777
  },
  {
    "region": 1,
    "departamento": "LA PLATA",
    "localidad": "LOS HORNOS",
    "distrito": "LA PLATA",
    "escuela": "EEST Nº 3",
    "nombre": "FRAY LUIS BELTRAN",
    "cue": 60890800,
    "direccion": "CALLE 63 Y 139",
    "lat": -34.95385196,
    "lng": -57.9716838
  },
  {
    "region": 1,
    "departamento": "LA PLATA",
    "localidad": "LA PLATA",
    "distrito": "LA PLATA",
    "escuela": "EEST Nº 5",
    "nombre": "GRAL. MANUEL N. SAVIO",
    "cue": 60888900,
    "direccion": "CALLE 76 Nº 611",
    "lat": -34.93436868,
    "lng": -57.92469975
  },
  {
    "region": 1,
    "departamento": "LA PLATA",
    "localidad": "LA PLATA",
    "distrito": "LA PLATA",
    "escuela": "EEST Nº 6",
    "nombre": "ALBERT THOMAS",
    "cue": 60855000,
    "direccion": "CALLE 1 Nº 1220",
    "lat": -34.91312872,
    "lng": -57.93797711
  },
  {
    "region": 1,
    "departamento": "LA PLATA",
    "localidad": "LA PLATA",
    "distrito": "LA PLATA",
    "escuela": "EEST Nº 7",
    "nombre": "LAURA ROSENDE MITRE DE MENDONCA",
    "cue": 60888200,
    "direccion": "CALLE 42 Nº 678",
    "lat": -34.91053542,
    "lng": -57.95892186
  },
  {
    "region": 1,
    "departamento": "LA PLATA",
    "localidad": "TOLOSA",
    "distrito": "LA PLATA",
    "escuela": "EEST Nº 8",
    "nombre": "JUAN BAUTISTA ALBERDI",
    "cue": 60879400,
    "direccion": "AV. 526 ENTRE 7 Y 8",
    "lat": -34.89641789,
    "lng": -57.97657992
  },
  {
    "region": 1,
    "departamento": "MAGDALENA",
    "localidad": "MAGDALENA",
    "distrito": "MAGDALENA",
    "escuela": "EEST Nº 1",
    "nombre": "GRAL. MARIANO NECOCHEA",
    "cue": 60678500,
    "direccion": "BRENAN Nº 1511",
    "lat": -35.07973163,
    "lng": -57.51133
  },
  {
    "region": 1,
    "departamento": "PUNTA INDIO",
    "localidad": "PUNTA INDIO",
    "distrito": "PUNTA INDIO",
    "escuela": "EEST Nº 1",
    "nombre": "BASE AERONAVAL PUNTA INDIO",
    "cue": 60638300,
    "direccion": "BASE AERONAVAL PUNTA INDIO",
    "lat": -35.350566,
    "lng": -57.297616
  },
  {
    "region": 2,
    "departamento": "AVELLANEDA",
    "localidad": "DOCK SUD",
    "distrito": "AVELLANEDA",
    "escuela": "EEST Nº 1",
    "nombre": "JOSÉ INGENIEROS",
    "cue": 60808300,
    "direccion": "LEANDRO N. ALEM Nº 1910 (ESQUINA VERTIZ)",
    "lat": -34.65673541,
    "lng": -58.34623432
  },
  {
    "region": 2,
    "departamento": "AVELLANEDA",
    "localidad": "VILLA DOMINICO",
    "distrito": "AVELLANEDA",
    "escuela": "EEST Nº 2",
    "nombre": "GRAL. ENRIQUE MOSCONI",
    "cue": 60744900,
    "direccion": "GRAL. PICO Nº 1305",
    "lat": -34.70458251,
    "lng": -58.34440033
  },
  {
    "region": 2,
    "departamento": "AVELLANEDA",
    "localidad": "WILDE",
    "distrito": "AVELLANEDA",
    "escuela": "EEST Nº 3",
    "nombre": "REPÚBLICA DE MÉXICO",
    "cue": 60734700,
    "direccion": "CAXARAVILLE Y FRIULI S/N",
    "lat": -34.71868373,
    "lng": -58.33942573
  },
  {
    "region": 2,
    "departamento": "AVELLANEDA",
    "localidad": "AVELLANEDA",
    "distrito": "AVELLANEDA",
    "escuela": "EEST Nº 4",
    "nombre": "DR. ERNESTO LONGOBARDI",
    "cue": 60769400,
    "direccion": "LAMBARÉ Nº 645",
    "lat": -34.67450589,
    "lng": -58.36080695
  },
  {
    "region": 2,
    "departamento": "AVELLANEDA",
    "localidad": "AVELLANEDA",
    "distrito": "AVELLANEDA",
    "escuela": "EEST Nº 5",
    "nombre": "DR. SALVADOR DE BENEDETTI",
    "cue": 61048300,
    "direccion": "JUAN BAUTISTA PALAA Nº 747",
    "lat": -34.6659769,
    "lng": -58.3680431
  },
  {
    "region": 2,
    "departamento": "AVELLANEDA",
    "localidad": "WILDE",
    "distrito": "AVELLANEDA",
    "escuela": "EEST Nº 6",
    "nombre": "S/N",
    "cue": 61080300,
    "direccion": "AV. MITRE Nº 5711",
    "lat": -34.69941009,
    "lng": -58.3238964
  },
  {
    "region": 2,
    "departamento": "AVELLANEDA",
    "localidad": "AVELLANEDA",
    "distrito": "AVELLANEDA",
    "escuela": "EEST Nº 7",
    "nombre": "JOSÉ GERNANDEZ",
    "cue": 60747100,
    "direccion": "ING. MARCONI Nº 745",
    "lat": -34.66167298,
    "lng": -58.36417582
  },
  {
    "region": 2,
    "departamento": "AVELLANEDA",
    "localidad": "AVELLANEDA",
    "distrito": "AVELLANEDA",
    "escuela": "EEST Nº 8",
    "nombre": "ING. Y DR. ANGEL GALLARDO",
    "cue": 61033800,
    "direccion": "LAVALLE NºN 43",
    "lat": -34.66260515,
    "lng": -58.36635532
  },
  {
    "region": 2,
    "departamento": "AVELLANEDA",
    "localidad": "AVELLANEDA",
    "distrito": "AVELLANEDA",
    "escuela": "EEST Nº 9",
    "nombre": "ING. TORCUATO DI TELLA",
    "cue": 60778400,
    "direccion": "AV. RIVADAVIA Nº 1069",
    "lat": -34.67100386,
    "lng": -58.39338839
  },
  {
    "region": 2,
    "departamento": "LANUS",
    "localidad": "LANUS",
    "distrito": "LANÚS",
    "escuela": "EEST Nº 1",
    "nombre": "NICOLÁS AVELLANEDA",
    "cue": 60971100,
    "direccion": "CORONEL BURELAS Nº 2230",
    "lat": -34.70182635,
    "lng": -58.3647284
  },
  {
    "region": 2,
    "departamento": "LANUS",
    "localidad": "VALENTIN ALSINA",
    "distrito": "LANÚS",
    "escuela": "EEST Nº 2",
    "nombre": "DR. VALENTÍN ALSINA",
    "cue": 60874700,
    "direccion": "PRESIDENTE JUAN DOMINGO PERÓN",
    "lat": -34.67145507,
    "lng": -58.40982832
  },
  {
    "region": 2,
    "departamento": "LANUS",
    "localidad": "VILLA DEL VALLE",
    "distrito": "LANÚS",
    "escuela": "EEST Nº 4",
    "nombre": "MARTÍN MIGUEL DE GUEMES",
    "cue": 60282700,
    "direccion": "JOSÉ MARÍA MORENO Nº 2660",
    "lat": -34.69018212,
    "lng": -58.42390505
  },
  {
    "region": 2,
    "departamento": "LANUS",
    "localidad": "LANUS",
    "distrito": "LANÚS",
    "escuela": "EEST Nº 5",
    "nombre": "JHON FITZGERALD KENNEDY",
    "cue": 60971200,
    "direccion": "GRAL. ARIAS",
    "lat": -34.71465941,
    "lng": -58.38684199
  },
  {
    "region": 2,
    "departamento": "LANUS",
    "localidad": "REMEDIOS DE ESCA",
    "distrito": "LANÚS",
    "escuela": "EEST Nº 6",
    "nombre": "FERROCARRILES ARGENTINAS",
    "cue": 60874500,
    "direccion": "AV. HIPÓLITO YRIGOYEN Nº 5986",
    "lat": -34.72442439,
    "lng": -58.39485397
  },
  {
    "region": 2,
    "departamento": "LANUS",
    "localidad": "VALENTIN ALSINA",
    "distrito": "LANÚS",
    "escuela": "EEST Nº 7",
    "nombre": "REPÚBLICA DE PANAMÁ",
    "cue": 60389900,
    "direccion": "RIVADAVIA Nº 145",
    "lat": -34.67325792,
    "lng": -58.39595786
  },
  {
    "region": 2,
    "departamento": "LANUS",
    "localidad": "LANUS",
    "distrito": "LANÚS",
    "escuela": "EEST Nº 8",
    "nombre": "ALMAFUERTE",
    "cue": 61153600,
    "direccion": "JEAN JAURES Nº 749",
    "lat": -34.6869616,
    "lng": -58.38923822
  },
  {
    "region": 2,
    "departamento": "LANUS",
    "localidad": "LANUS",
    "distrito": "LANÚS",
    "escuela": "EEST Nº 9",
    "nombre": "PROFESOR ANTONIO JOSÉ RODRIGUEZ",
    "cue": 60970800,
    "direccion": "29 DE SEPTIEMBRE Nº 1760",
    "lat": -34.70503867,
    "lng": -58.38928876
  },
  {
    "region": 2,
    "departamento": "LOMAS DE ZAMORA",
    "localidad": "LOMAS DE ZAMORA",
    "distrito": "LOMAS DE ZAMORA",
    "escuela": "EEST Nº 1",
    "nombre": "GRAL. JOSÉ DE SAN MARTÍN",
    "cue": 60868200,
    "direccion": "MANUEL CASTRO Nº 161",
    "lat": -34.75849841,
    "lng": -58.40348181
  },
  {
    "region": 2,
    "departamento": "LOMAS DE ZAMORA",
    "localidad": "TEMPERLEY",
    "distrito": "LOMAS DE ZAMORA",
    "escuela": "EEST Nº 2",
    "nombre": "S/N",
    "cue": 61097800,
    "direccion": "LAVALLE Nº 801",
    "lat": -34.77727974,
    "lng": -58.40837515
  },
  {
    "region": 2,
    "departamento": "LOMAS DE ZAMORA",
    "localidad": "TEMPERLEY",
    "distrito": "LOMAS DE ZAMORA",
    "escuela": "EEST Nº 3",
    "nombre": "S/N",
    "cue": 60421100,
    "direccion": "EL TORDO Nº 459",
    "lat": -34.761439,
    "lng": -58.35295842
  },
  {
    "region": 2,
    "departamento": "LOMAS DE ZAMORA",
    "localidad": "LLAVALLOL",
    "distrito": "LOMAS DE ZAMORA",
    "escuela": "EEST Nº 4",
    "nombre": "S/N",
    "cue": 60766900,
    "direccion": "AV. ANTÁRTIDA ARGENTINA Nº 2750",
    "lat": -34.80349285,
    "lng": -58.43542094
  },
  {
    "region": 2,
    "departamento": "LOMAS DE ZAMORA",
    "localidad": "TEMPERLEY",
    "distrito": "LOMAS DE ZAMORA",
    "escuela": "EEST Nº 5",
    "nombre": "2 DE ABRIL",
    "cue": 61098100,
    "direccion": "PRINGLES Nº 27",
    "lat": -34.76892219,
    "lng": -58.39881677
  },
  {
    "region": 2,
    "departamento": "LOMAS DE ZAMORA",
    "localidad": "BANDFIELD",
    "distrito": "LOMAS DE ZAMORA",
    "escuela": "EEST Nº 6",
    "nombre": "INGF. JUAN VALENTÍN PASSALACQUA",
    "cue": 61130100,
    "direccion": "GASCÓN Nº 150 ESQ AV. ALSINA (ALSINA 868)",
    "lat": -34.74691329,
    "lng": -58.3935624
  },
  {
    "region": 2,
    "departamento": "LOMAS DE ZAMORA",
    "localidad": "LOMAS DE ZAMORA",
    "distrito": "LOMAS DE ZAMORA",
    "escuela": "EEST Nº 7",
    "nombre": "S/N",
    "cue": 60860100,
    "direccion": "ACEVEDO 1864",
    "lat": -34.73818128,
    "lng": -58.39677559
  },
  {
    "region": 2,
    "departamento": "LOMAS DE ZAMORA",
    "localidad": "VILLA FIORITO",
    "distrito": "LOMAS DE ZAMORA",
    "escuela": "EEST Nº 8",
    "nombre": "S/N",
    "cue": 61034500,
    "direccion": "PIO BAROJA S/N",
    "lat": -34.71465472,
    "lng": -58.44617075
  },
  {
    "region": 2,
    "departamento": "LOMAS DE ZAMORA",
    "localidad": "BARRIO 2 DE ABRI",
    "distrito": "LOMAS DE ZAMORA",
    "escuela": "EEST Nº 9",
    "nombre": "SOLDADO VÍCTOR RODRIGUEZ",
    "cue": 61474800,
    "direccion": "MANUELA PEDRAZA Y SOLDADO RODRIGUEZ",
    "lat": -34.74161077,
    "lng": -58.47285519
  },
  {
    "region": 3,
    "departamento": "LA MATANZA",
    "localidad": "ISIDRO CASANOVA",
    "distrito": "LA MATANZA",
    "escuela": "EEST Nº 1",
    "nombre": "ARMADA ARGENTINA",
    "cue": 60866300,
    "direccion": "JUAN MANUEL DE ROSAS Nº 5975/ RUTA 3 KM 21)",
    "lat": -34.69756223,
    "lng": -58.57803009
  },
  {
    "region": 3,
    "departamento": "LA MATANZA",
    "localidad": "CIUDAD EVITA",
    "distrito": "LA MATANZA",
    "escuela": "EEST Nº 2",
    "nombre": "MARÍA EVA DUARTE",
    "cue": 61192600,
    "direccion": "REINALDA RODRIGUEZ Nº 3850",
    "lat": -34.72925667,
    "lng": -58.53446136
  },
  {
    "region": 3,
    "departamento": "LA MATANZA",
    "localidad": "SAN JUSTO",
    "distrito": "LA MATANZA",
    "escuela": "EEST Nº 3",
    "nombre": "MANUEL BELGRANO",
    "cue": 60560800,
    "direccion": "SALTA Nº 2487",
    "lat": -34.67653397,
    "lng": -58.56293961
  },
  {
    "region": 3,
    "departamento": "LA MATANZA",
    "localidad": "SAN JUSTO",
    "distrito": "LA MATANZA",
    "escuela": "EEST Nº 4",
    "nombre": "JUAN MANUEL FANGIO",
    "cue": 60765500,
    "direccion": "VILLEGAS Nº 2231",
    "lat": -34.67576014,
    "lng": -58.560119
  },
  {
    "region": 3,
    "departamento": "LA MATANZA",
    "localidad": "SAN JUSTO",
    "distrito": "LA MATANZA",
    "escuela": "EEST Nº 5",
    "nombre": "ROBERTO NÓBILE",
    "cue": 60818900,
    "direccion": "PEROBEBUY Nº 2751",
    "lat": -34.6895247,
    "lng": -58.54980739
  },
  {
    "region": 3,
    "departamento": "LA MATANZA",
    "localidad": "ISIDRO CASANOVA",
    "distrito": "LA MATANZA",
    "escuela": "EEST Nº 6",
    "nombre": "S/N",
    "cue": 60793500,
    "direccion": "J. M. DE ROSAS Y CENTENARIO",
    "lat": -34.69414609,
    "lng": -58.57601684
  },
  {
    "region": 3,
    "departamento": "LA MATANZA",
    "localidad": "GREGORIO DE LAFERRERE",
    "distrito": "LA MATANZA",
    "escuela": "EEST Nº 7",
    "nombre": "PRESIDENTE NESTOR KIRCHNER",
    "cue": 60868300,
    "direccion": "VICTOR MARTINEZ Y SANTA ROSA S/N",
    "lat": -34.73371255,
    "lng": -58.58408487
  },
  {
    "region": 3,
    "departamento": "LA MATANZA",
    "localidad": "VILLA LUZURIAGA",
    "distrito": "LA MATANZA",
    "escuela": "EEST Nº 8",
    "nombre": "JORGE NEWBERY",
    "cue": 61242100,
    "direccion": "ALMAFUERTE",
    "lat": -34.65644231,
    "lng": -58.58856689
  },
  {
    "region": 3,
    "departamento": "LA MATANZA",
    "localidad": "VILLA CELINA",
    "distrito": "LA MATANZA",
    "escuela": "EEST Nº 9",
    "nombre": "CRUCERO ARA GRAL. BELGRANO",
    "cue": 60720300,
    "direccion": "PASAJE TEMPERLEY Nº 945",
    "lat": -34.7074262,
    "lng": -58.48083926
  },
  {
    "region": 3,
    "departamento": "LA MATANZA",
    "localidad": "VILLA MADERO",
    "distrito": "LA MATANZA",
    "escuela": "EEST Nº 10",
    "nombre": "S/N",
    "cue": 60551700,
    "direccion": "MARIQUITA THOMPSON Y ESPAÑA",
    "lat": -34.69013927,
    "lng": -58.4926745
  },
  {
    "region": 3,
    "departamento": "LA MATANZA",
    "localidad": "CIUDAD EVITA",
    "distrito": "LA MATANZA",
    "escuela": "EEST Nº 11",
    "nombre": "ISLAS MALVINAS",
    "cue": 61186100,
    "direccion": "MARTÍN MIGUEL DE GÛEMES Nº 3860",
    "lat": -34.72618551,
    "lng": -58.53040247
  },
  {
    "region": 3,
    "departamento": "LA MATANZA",
    "localidad": "SAN JUSTO",
    "distrito": "LA MATANZA",
    "escuela": "EEST Nº 12",
    "nombre": "ITALIA",
    "cue": 61032100,
    "direccion": "ITUZAINGÓN Nº 4089",
    "lat": -34.67699073,
    "lng": -58.59192857
  },
  {
    "region": 3,
    "departamento": "LA MATANZA",
    "localidad": "VIRREY DEL PINO",
    "distrito": "LA MATANZA",
    "escuela": "EEST Nº 13",
    "nombre": "S/N",
    "cue": 62038200,
    "direccion": "CALLE 5 ENTRE 101 Y 102",
    "lat": -34.83773745,
    "lng": -58.64826849
  },
  {
    "region": 3,
    "departamento": "LA MATANZA",
    "localidad": "GONZALEZ CATAN",
    "distrito": "LA MATANZA",
    "escuela": "EEST Nº 14",
    "nombre": "S/N",
    "cue": 60866400,
    "direccion": "BARILOCHE Nº 6615",
    "lat": -34.78307122,
    "lng": -58.61787837
  },
  {
    "region": 4,
    "departamento": "BERAZATEGUI",
    "localidad": "RANELAGH",
    "distrito": "BERAZATEGUI",
    "escuela": "EEST Nº 1",
    "nombre": "S/N",
    "cue": 61167600,
    "direccion": "119 Nº 3105",
    "lat": -34.79302812,
    "lng": -58.22650598
  },
  {
    "region": 4,
    "departamento": "BERAZATEGUI",
    "localidad": "GUILLERMO E HUDSON",
    "distrito": "BERAZATEGUI",
    "escuela": "EEST Nº 2",
    "nombre": "PROVINCIA DE LA RIOJA",
    "cue": 60996600,
    "direccion": "CALLE 57 Nº 2850",
    "lat": -34.81170431,
    "lng": -58.18441086
  },
  {
    "region": 4,
    "departamento": "BERAZATEGUI",
    "localidad": "BERAZATEGUI",
    "distrito": "BERAZATEGUI",
    "escuela": "EEST Nº 3",
    "nombre": "S/N",
    "cue": 61010200,
    "direccion": "CALLE 15 Nº 5673",
    "lat": -34.75852396,
    "lng": -58.20115788
  },
  {
    "region": 4,
    "departamento": "BERAZATEGUI",
    "localidad": "BERAZATEGUI",
    "distrito": "BERAZATEGUI",
    "escuela": "EEST Nº 4",
    "nombre": "RICARDO ALBERTO LOPEZ",
    "cue": 61825800,
    "direccion": "CALLE 111 Nº 1890",
    "lat": -34.78579777,
    "lng": -58.24297694
  },
  {
    "region": 4,
    "departamento": "BERAZATEGUI",
    "localidad": "RANELAGH",
    "distrito": "BERAZATEGUI",
    "escuela": "EEST Nº 5",
    "nombre": "S/N",
    "cue": 60382000,
    "direccion": "CALLE 368B ESQ 316 S/N",
    "lat": -34.78879853,
    "lng": -58.18785911
  },
  {
    "region": 4,
    "departamento": "FLORENCIO VARELA",
    "localidad": "BOSQUES",
    "distrito": "FLORENCIO VARELA",
    "escuela": "EEST Nº 1",
    "nombre": "CNEL. DE MARINA JOSÉ LUIS PIEDRABUENA",
    "cue": 60843200,
    "direccion": "LUGONES E/ FADER Y OBLIGADO",
    "lat": -34.82546471,
    "lng": -58.2278914
  },
  {
    "region": 4,
    "departamento": "FLORENCIO VARELA",
    "localidad": "FLORENCIO VARELA",
    "distrito": "FLORENCIO VARELA",
    "escuela": "EEST Nº 2",
    "nombre": "RODOLFO WALSH",
    "cue": 60843800,
    "direccion": "SALLARES Nº699",
    "lat": -34.80720175,
    "lng": -58.26705639
  },
  {
    "region": 4,
    "departamento": "FLORENCIO VARELA",
    "localidad": "INGENIERO JUAN A",
    "distrito": "FLORENCIO VARELA",
    "escuela": "EEST Nº 3",
    "nombre": "ING. ALLAN",
    "cue": 61142600,
    "direccion": "CALLE 1201 Nº 4401",
    "lat": -34.8673029,
    "lng": -58.18930182
  },
  {
    "region": 4,
    "departamento": "FLORENCIO VARELA",
    "localidad": "FLORENCIO VARELA",
    "distrito": "FLORENCIO VARELA",
    "escuela": "EEST Nº 4",
    "nombre": "JORGE ALBERTO SABATO",
    "cue": 60884900,
    "direccion": "HIPÓLITO YRIGOYEN Nº 95",
    "lat": -34.78876287,
    "lng": -58.27749537
  },
  {
    "region": 4,
    "departamento": "QUILMES",
    "localidad": "QUILMES",
    "distrito": "QUILMES",
    "escuela": "EEST Nº 1",
    "nombre": "PABELLÓN NACIONAL ARGENTINO",
    "cue": 61094200,
    "direccion": "ANDRADE Nº 800",
    "lat": -34.74504212,
    "lng": -58.25558029
  },
  {
    "region": 4,
    "departamento": "QUILMES",
    "localidad": "DON BOSCO",
    "distrito": "QUILMES",
    "escuela": "EEST Nº 2",
    "nombre": "PAULA A. DE SARMIENTO",
    "cue": 60746200,
    "direccion": "ESPORA Nº 101",
    "lat": -34.70733392,
    "lng": -58.28124551
  },
  {
    "region": 4,
    "departamento": "QUILMES",
    "localidad": "SAN FRANCISCO SO",
    "distrito": "QUILMES",
    "escuela": "EEST Nº 3",
    "nombre": "REPÚBLICA DE ITALIA",
    "cue": 60406700,
    "direccion": "AV. 844Nº 2135",
    "lat": -34.77721778,
    "lng": -58.30677361
  },
  {
    "region": 4,
    "departamento": "QUILMES",
    "localidad": "QUILMES",
    "distrito": "QUILMES",
    "escuela": "EEST Nº 4",
    "nombre": "GRAL. ENRIQUE MOSCONI",
    "cue": 61097600,
    "direccion": "NICOLÁS VIDELA Nº 226",
    "lat": -34.72017813,
    "lng": -58.25805032
  },
  {
    "region": 4,
    "departamento": "QUILMES",
    "localidad": "QUILMES",
    "distrito": "QUILMES",
    "escuela": "EEST Nº 5",
    "nombre": "REINO DE ESPAÑA",
    "cue": 60772600,
    "direccion": "GARIBALDI Nº 433",
    "lat": -34.72160247,
    "lng": -58.25176155
  },
  {
    "region": 4,
    "departamento": "QUILMES",
    "localidad": "QUILMES",
    "distrito": "QUILMES",
    "escuela": "EEST Nº 6",
    "nombre": "COMBATE DE SAN LORENZO",
    "cue": 60732000,
    "direccion": "AV. CALCHAQUÍ Nº 1894",
    "lat": -34.74446692,
    "lng": -58.28829258
  },
  {
    "region": 4,
    "departamento": "QUILMES",
    "localidad": "QUILMES",
    "distrito": "QUILMES",
    "escuela": "EEST Nº 7",
    "nombre": "TALLER REGIONAL QUILMES",
    "cue": 61038200,
    "direccion": "AV. OTAMENDI Y JUAN B. JUSTO",
    "lat": -34.70835939,
    "lng": -58.23566906
  },
  {
    "region": 5,
    "departamento": "ALMIRANTE BROWN",
    "localidad": "LONGCHAMPS",
    "distrito": "ALTE. BROWN",
    "escuela": "EEST Nº 1",
    "nombre": "GRAL. MARTÍN MIGUEL DE GUEMES",
    "cue": 61033400,
    "direccion": "H. IRIGOYEN Y BOLIVAR",
    "lat": -34.86112101,
    "lng": -58.38903162
  },
  {
    "region": 5,
    "departamento": "ALMIRANTE BROWN",
    "localidad": "GLEW",
    "distrito": "ALTE. BROWN",
    "escuela": "EEST Nº 2",
    "nombre": "CEFERINO NAMUNCURÁ",
    "cue": 60430600,
    "direccion": "CAMPBELL Nº 680 ENTRE BEIRO Y FAUSTO",
    "lat": -34.89652598,
    "lng": -58.39785756
  },
  {
    "region": 5,
    "departamento": "ALMIRANTE BROWN",
    "localidad": "CLAYPOLE",
    "distrito": "ALTE. BROWN",
    "escuela": "EEST Nº 3",
    "nombre": "S/N",
    "cue": 60741900,
    "direccion": "17 DE OCTUBRE Nº 650",
    "lat": -34.80020343,
    "lng": -58.3393464
  },
  {
    "region": 5,
    "departamento": "ESTEBAN ECHEVERRIA",
    "localidad": "MONTE GRANDE",
    "distrito": "ESTEBAN ECHEVERRÍA",
    "escuela": "EEST Nº 1",
    "nombre": "S/N",
    "cue": 61547600,
    "direccion": "GUEMES Nº 2051",
    "lat": -34.84053096,
    "lng": -58.46479723
  },
  {
    "region": 5,
    "departamento": "EZEIZA",
    "localidad": "LA UNION",
    "distrito": "EZEIZA",
    "escuela": "EEST Nº 1",
    "nombre": "S/N",
    "cue": 60848300,
    "direccion": "CIUDAD DE GOYA Nº 608",
    "lat": -34.87177264,
    "lng": -58.53018095
  },
  {
    "region": 5,
    "departamento": "PRESIDENTE PERON",
    "localidad": "GUERNICA",
    "distrito": "PTE. PERÓN",
    "escuela": "EEST Nº 1",
    "nombre": "BERNARDINO RIVADAVIA",
    "cue": 60957500,
    "direccion": "CALLE 35 Y 11",
    "lat": -34.92061266,
    "lng": -58.37184735
  },
  {
    "region": 5,
    "departamento": "SAN VICENTE",
    "localidad": "SAN VICENTE",
    "distrito": "SAN VICENTE",
    "escuela": "EEST Nº 2",
    "nombre": "MANUEL MATEO",
    "cue": 60011000,
    "direccion": "QUINTANA Nº 154",
    "lat": -35.01723387,
    "lng": -58.42799679
  },
  {
    "region": 6,
    "departamento": "SAN FERNANDO",
    "localidad": "SAN FERNANDO",
    "distrito": "SAN FERNANDO",
    "escuela": "EEST Nº 2",
    "nombre": "PBRO. DR. MANUEL DE SAN GINÉS",
    "cue": 61050300,
    "direccion": "AYACUCHO Nº 937",
    "lat": -34.44072421,
    "lng": -58.5532531
  },
  {
    "region": 6,
    "departamento": "SAN FERNANDO",
    "localidad": "SAN FERNANDO",
    "distrito": "SAN FERNANDO",
    "escuela": "EEST Nº 3",
    "nombre": "CAPITÁN DE FRAGATA CARLOS MARÍA MOYANO",
    "cue": 61050200,
    "direccion": "MIGUEL CANÉ Nº 4565",
    "lat": -34.46340305,
    "lng": -58.5828574
  },
  {
    "region": 6,
    "departamento": "SAN ISIDRO",
    "localidad": "SAN ISIDRO",
    "distrito": "SAN ISIDRO",
    "escuela": "EEST Nº 1",
    "nombre": "S/N",
    "cue": 61213800,
    "direccion": "NEUQUEN Nº 1229",
    "lat": -34.47287644,
    "lng": -58.53135792
  },
  {
    "region": 6,
    "departamento": "SAN ISIDRO",
    "localidad": "BOULOGNE SUR MER",
    "distrito": "SAN ISIDRO",
    "escuela": "EEST Nº 2",
    "nombre": "S/N",
    "cue": 61224000,
    "direccion": "PATAGONIA Nº 514",
    "lat": -34.47968925,
    "lng": -58.57895853
  },
  {
    "region": 6,
    "departamento": "SAN ISIDRO",
    "localidad": "SAN ISIDRO",
    "distrito": "SAN ISIDRO",
    "escuela": "EEST Nº 3",
    "nombre": "15 DE SEPTIEMBRE",
    "cue": 61220700,
    "direccion": "25 DE MAYO Nº 714",
    "lat": -34.46686258,
    "lng": -58.51279732
  },
  {
    "region": 6,
    "departamento": "SAN ISIDRO",
    "localidad": "BOULOGNE SUR MER",
    "distrito": "SAN ISIDRO",
    "escuela": "EEST Nº 4",
    "nombre": "REPÚBLICA DE BOLIVIA",
    "cue": 61222300,
    "direccion": "YERBAL Nº 50",
    "lat": -34.50289286,
    "lng": -58.56046977
  },
  {
    "region": 6,
    "departamento": "TIGRE",
    "localidad": "EL TALAR",
    "distrito": "TIGRE",
    "escuela": "EEST Nº 1",
    "nombre": "MANUEL SAVIO",
    "cue": 61097300,
    "direccion": "KENNEDY Nº 700 ESQ DEFENSA",
    "lat": -34.46779295,
    "lng": -58.64861108
  },
  {
    "region": 6,
    "departamento": "TIGRE",
    "localidad": "ROJAS",
    "distrito": "TIGRE",
    "escuela": "EEST Nº 2",
    "nombre": "S/N",
    "cue": 61174000,
    "direccion": "CARLOS TEJEDOR E/ RICHIERI Y TALCAHUANO",
    "lat": -34.46082807,
    "lng": -58.68663202
  },
  {
    "region": 6,
    "departamento": "TIGRE",
    "localidad": "BENAVIDEZ",
    "distrito": "TIGRE",
    "escuela": "EEST Nº 3",
    "nombre": "UNIÓN INDUSTRIAL ARGENTINA",
    "cue": 61183100,
    "direccion": "AV. BENAVIDEZ ESQ AV. MARABOTTO S/N",
    "lat": -34.41096481,
    "lng": -58.69628373
  },
  {
    "region": 6,
    "departamento": "TIGRE",
    "localidad": "TIGRE",
    "distrito": "TIGRE",
    "escuela": "EEST Nº 4",
    "nombre": "S/N",
    "cue": 61057700,
    "direccion": "TRIUNVIRATO Nº 2653",
    "lat": -34.50133006,
    "lng": -58.60966222
  },
  {
    "region": 6,
    "departamento": "TIGRE",
    "localidad": "TIGRE",
    "distrito": "TIGRE",
    "escuela": "EEST Nº 5",
    "nombre": "RAÚL ESCALABRINI ORTIZ",
    "cue": 60917300,
    "direccion": "AV. CASON Nº 1999",
    "lat": -34.42654127,
    "lng": -58.57543768
  },
  {
    "region": 6,
    "departamento": "VICENTE LOPEZ",
    "localidad": "VILLA ADELINA",
    "distrito": "VICENTE LOPEZ",
    "escuela": "EEST Nº 1",
    "nombre": "EDUARDO ADER",
    "cue": 60958100,
    "direccion": "CERRITO Nº 3966",
    "lat": -34.52927972,
    "lng": -58.5498492
  },
  {
    "region": 6,
    "departamento": "VICENTE LOPEZ",
    "localidad": "MUNRO",
    "distrito": "VICENTE LOPEZ",
    "escuela": "EEST Nº 2",
    "nombre": "S/N",
    "cue": 60671900,
    "direccion": "SARGENTO CABRAL 2772",
    "lat": -34.52508259,
    "lng": -58.51807396
  },
  {
    "region": 6,
    "departamento": "VICENTE LOPEZ",
    "localidad": "OLIVOS",
    "distrito": "VICENTE LOPEZ",
    "escuela": "EEST Nº 3",
    "nombre": "HIPÓLITO YRIGOYEN",
    "cue": 60895400,
    "direccion": "H. DE LA QUINTANA Nº 3237",
    "lat": -34.50844585,
    "lng": -58.4965417
  },
  {
    "region": 6,
    "departamento": "VICENTE LOPEZ",
    "localidad": "FLORIDA",
    "distrito": "VICENTE LOPEZ",
    "escuela": "EEST Nº 4",
    "nombre": "GRAL. MARTÍN MIGUEL DE GUEMES",
    "cue": 60733900,
    "direccion": "AV. SAN MARTÍN Nº 4650",
    "lat": -34.54239738,
    "lng": -58.52111195
  },
  {
    "region": 7,
    "departamento": "GENERAL SAN MARTIN",
    "localidad": "GRAL SAN MARTIN",
    "distrito": "GENERAL SAN MARTÍN",
    "escuela": "EEST Nº 1",
    "nombre": "MANUEL BELGRANO",
    "cue": 61155300,
    "direccion": "INTENDENTE CAMPOS Nº 1950",
    "lat": -34.57777631,
    "lng": -58.536477
  },
  {
    "region": 7,
    "departamento": "GENERAL SAN MARTIN",
    "localidad": "CIUDAD VILLA BAL",
    "distrito": "GENERAL SAN MARTÍN",
    "escuela": "EEST Nº 2",
    "nombre": "ALEMANIA",
    "cue": 60162400,
    "direccion": "PACÍFICO RODRIGUEZ",
    "lat": -34.5439161,
    "lng": -58.56134151
  },
  {
    "region": 7,
    "departamento": "GENERAL SAN MARTIN",
    "localidad": "GRAL SAN MARTIN",
    "distrito": "GENERAL SAN MARTÍN",
    "escuela": "EEST Nº 3",
    "nombre": "PREFECTURA NAVAL ARGENTINA",
    "cue": 60747000,
    "direccion": "AV. 101 (EX RICARDO  BALBIN) Nº 2281",
    "lat": -34.57904136,
    "lng": -58.54464672
  },
  {
    "region": 7,
    "departamento": "GENERAL SAN MARTIN",
    "localidad": "GRAL SAN MARTIN",
    "distrito": "GENERAL SAN MARTÍN",
    "escuela": "EEST Nº 4",
    "nombre": "SE LLAMO AL INSPECTOR",
    "cue": 61155400,
    "direccion": "SAN MARTÍN Nº 1714",
    "lat": -34.58012459,
    "lng": -58.53512888
  },
  {
    "region": 7,
    "departamento": "GENERAL SAN MARTIN",
    "localidad": "VILLA BOSCH",
    "distrito": "GENERAL SAN MARTÍN",
    "escuela": "EEST Nº 5",
    "nombre": "GALILEO GALILEI",
    "cue": 61154700,
    "direccion": "AV. EVA PERÓN Nº 4541",
    "lat": -34.56992827,
    "lng": -58.57291649
  },
  {
    "region": 7,
    "departamento": "HURLINGHAM",
    "localidad": "CIUDAD VILLA SAN",
    "distrito": "HURLINGHAM",
    "escuela": "EEST Nº 1",
    "nombre": "ORGANIZACIÓN DE LOS ESTADOS AMERICANOS",
    "cue": 60521800,
    "direccion": "BRADLEY Nº 395",
    "lat": -34.62536571,
    "lng": -58.62790782
  },
  {
    "region": 7,
    "departamento": "HURLINGHAM",
    "localidad": "HURLINGHAM",
    "distrito": "HURLINGHAM",
    "escuela": "EEST Nº 2",
    "nombre": "REPÚBLICA DE PERÚ",
    "cue": 60927800,
    "direccion": "OCAMPO Nº 1075",
    "lat": -34.59434787,
    "lng": -58.62483309
  },
  {
    "region": 7,
    "departamento": "TRES DE FEBRERO",
    "localidad": "SAENZ PEÃ?A",
    "distrito": "TRES DE FEBRERO",
    "escuela": "EEST Nº 1",
    "nombre": "MANUEL BELGRANO",
    "cue": 60988400,
    "direccion": "NICARAGUA Nº 3516",
    "lat": -34.60251048,
    "lng": -58.5366862
  },
  {
    "region": 7,
    "departamento": "TRES DE FEBRERO",
    "localidad": "CIUDAD JARDIN LO",
    "distrito": "TRES DE FEBRERO",
    "escuela": "EEST Nº 2",
    "nombre": "TRES DE FEBRERO",
    "cue": 61171600,
    "direccion": "BRADLEY Nº 7350",
    "lat": -34.58908297,
    "lng": -58.59912167
  },
  {
    "region": 7,
    "departamento": "TRES DE FEBRERO",
    "localidad": "11 DE SEPTIEMBRE",
    "distrito": "TRES DE FEBRERO",
    "escuela": "EEST Nº 3",
    "nombre": "NTRA. SRA. DE LA MERCED",
    "cue": 60684200,
    "direccion": "RÍO NEGRO Nº 10076 E/ RÍO CUARTO Y SANTIAGO DEL ESTERO",
    "lat": -34.5652936,
    "lng": -58.61964639
  },
  {
    "region": 7,
    "departamento": "TRES DE FEBRERO",
    "localidad": "CIUDADELA",
    "distrito": "TRES DE FEBRERO",
    "escuela": "EEST Nº 4",
    "nombre": "S/N",
    "cue": 61141400,
    "direccion": "RICCHIERI Y NECOCHEA S/N",
    "lat": -34.62340365,
    "lng": -58.53762513
  },
  {
    "region": 8,
    "departamento": "ITUZAINGO",
    "localidad": "ITUZAINGO",
    "distrito": "ITUZAINGÓ",
    "escuela": "EEST Nº 1",
    "nombre": "REPÚBLICA DEL PARAGUAY",
    "cue": 60617700,
    "direccion": "MANSILLA Nº 877",
    "lat": -34.65770443,
    "lng": -58.66747788
  },
  {
    "region": 8,
    "departamento": "ITUZAINGO",
    "localidad": "ITUZAINGO",
    "distrito": "ITUZAINGÓ",
    "escuela": "EEST Nº 2",
    "nombre": "ALBERT EINSTEIN",
    "cue": 60558100,
    "direccion": "BLAS PARERA Nº 1425",
    "lat": -34.67475364,
    "lng": -58.66477943
  },
  {
    "region": 8,
    "departamento": "MERLO",
    "localidad": "MERLO",
    "distrito": "MERLO",
    "escuela": "EEST Nº 1",
    "nombre": "ING. FGRANCISCO E. URONDO",
    "cue": 60919200,
    "direccion": "AV. CALLE REAL Nº 161",
    "lat": -34.67411513,
    "lng": -58.72186065
  },
  {
    "region": 8,
    "departamento": "MERLO",
    "localidad": "MERLO",
    "distrito": "MERLO",
    "escuela": "EEST Nº 2",
    "nombre": "S/N",
    "cue": 60919300,
    "direccion": "GÛEMES Y ALSINA",
    "lat": -34.66100387,
    "lng": -58.7281551
  },
  {
    "region": 8,
    "departamento": "MERLO",
    "localidad": "SAN ANTONIO DE P",
    "distrito": "MERLO",
    "escuela": "EEST Nº 3",
    "nombre": "S/N",
    "cue": 60859600,
    "direccion": "EL ALGARROBO Nº 223",
    "lat": -34.67352793,
    "lng": -58.68622581
  },
  {
    "region": 8,
    "departamento": "MERLO",
    "localidad": "BARRIO PARQUE SA",
    "distrito": "MERLO",
    "escuela": "EEST Nº 4",
    "nombre": "S/N",
    "cue": 60992500,
    "direccion": "FLEMING Nº 4133",
    "lat": -34.69825636,
    "lng": -58.73257488
  },
  {
    "region": 8,
    "departamento": "MERLO",
    "localidad": "LIBERTAD",
    "distrito": "MERLO",
    "escuela": "EEST Nº 5",
    "nombre": "S/N",
    "cue": 61090700,
    "direccion": "MALVINAS Nº 1715",
    "lat": -34.69604908,
    "lng": -58.68990843
  },
  {
    "region": 8,
    "departamento": "MORON",
    "localidad": "EL PALOMAR",
    "distrito": "MORÓN",
    "escuela": "EEST Nº 4",
    "nombre": "PROF. HECTOR ÁNGEL LAGUARDE-I BRIGADA AEREA",
    "cue": 60623600,
    "direccion": "MATIENZO Y BERGAMINI S/N",
    "lat": -34.6081512,
    "lng": -58.59973684
  },
  {
    "region": 8,
    "departamento": "MORON",
    "localidad": "MORON",
    "distrito": "MORÓN",
    "escuela": "EEST Nº 6",
    "nombre": "CHACABUCO",
    "cue": 60612000,
    "direccion": "RIVADAVIA Nº 17337",
    "lat": -34.6477363,
    "lng": -58.6081698
  },
  {
    "region": 8,
    "departamento": "MORON",
    "localidad": "HAEDO",
    "distrito": "MORÓN",
    "escuela": "EEST Nº 8",
    "nombre": "S/N",
    "cue": 60644200,
    "direccion": "ANDRÉS FERREYRA Nº 1220",
    "lat": -34.63593576,
    "lng": -58.60841122
  },
  {
    "region": 9,
    "departamento": "JOSE C PAZ",
    "localidad": "JOSE C PAZ",
    "distrito": "JOSÉ C. PAZ",
    "escuela": "EEST Nº 1",
    "nombre": "COMUNIDAD DE JOSÉ C. PAZ",
    "cue": 60564000,
    "direccion": "ZUVIRIA Nº 4149",
    "lat": -34.52845656,
    "lng": -58.74257866
  },
  {
    "region": 9,
    "departamento": "JOSE C PAZ",
    "localidad": "JOSE C PAZ",
    "distrito": "JOSÉ C. PAZ",
    "escuela": "EEST Nº 2",
    "nombre": "S/N",
    "cue": 60506200,
    "direccion": "CNEL. SUAREZ Nº 2453/57",
    "lat": -34.52861718,
    "lng": -58.75557781
  },
  {
    "region": 9,
    "departamento": "JOSE C PAZ",
    "localidad": "JOSE C PAZ",
    "distrito": "JOSÉ C. PAZ",
    "escuela": "EEST Nº 3",
    "nombre": "EVITA",
    "cue": 61547800,
    "direccion": "TRES MARÍAS Y JOSÉ C. PAZ",
    "lat": -34.54015831,
    "lng": -58.78640669
  },
  {
    "region": 9,
    "departamento": "MALVINAS ARGENTINAS",
    "localidad": "GRAND BOURG",
    "distrito": "MALVINAS ARGENTINAS",
    "escuela": "EEST Nº 1",
    "nombre": "GRAL. JOSÉ DE SAN MARTÍN",
    "cue": 61547700,
    "direccion": "CHACABUCO Nº 276 ESQ MARIO BRAVO",
    "lat": -34.50086909,
    "lng": -58.72064546
  },
  {
    "region": 9,
    "departamento": "MORENO",
    "localidad": "MARIANO MORENO",
    "distrito": "MORENO",
    "escuela": "EEST Nº 1",
    "nombre": "GRAL. NICOLÁS MANUEL SAVIO",
    "cue": 61018100,
    "direccion": "ISABEL LA CATÓLICA Y JORGE NEWBERY",
    "lat": -34.60676417,
    "lng": -58.75498179
  },
  {
    "region": 9,
    "departamento": "MORENO",
    "localidad": "MARIANO MORENO",
    "distrito": "MORENO",
    "escuela": "EEST Nº 2",
    "nombre": "GENDARMERÍA NACIONAL",
    "cue": 61206200,
    "direccion": "ALBERDI Nº 131",
    "lat": -34.6504124,
    "lng": -58.79656084
  },
  {
    "region": 9,
    "departamento": "MORENO",
    "localidad": "LA REJA",
    "distrito": "MORENO",
    "escuela": "EEST Nº 4",
    "nombre": "MARÍA EVA DUARTE DE PERÓN",
    "cue": 60644700,
    "direccion": "CHILAVERT Nº 2401 ESQ. PAYRÓ",
    "lat": -34.62959845,
    "lng": -58.82088266
  },
  {
    "region": 9,
    "departamento": "SAN MIGUEL",
    "localidad": "MUÃ?IZ",
    "distrito": "SAN MIGUEL",
    "escuela": "EEST Nº 1",
    "nombre": "NUESTRA SEÑORA DEL VALLE",
    "cue": 60918100,
    "direccion": "FARIAS Nº 480",
    "lat": -34.55405399,
    "lng": -58.70382403
  },
  {
    "region": 9,
    "departamento": "SAN MIGUEL",
    "localidad": "SAN MIGUEL",
    "distrito": "SAN MIGUEL",
    "escuela": "EEST Nº 2",
    "nombre": "REPÚBLICA ARGENTINA",
    "cue": 60575300,
    "direccion": "PEDRO RIVERA Nº 3736",
    "lat": -34.55585164,
    "lng": -58.76709155
  },
  {
    "region": 9,
    "departamento": "SAN MIGUEL",
    "localidad": "SAN MIGUEL",
    "distrito": "SAN MIGUEL",
    "escuela": "EEST Nº 3",
    "nombre": "JAPÓN",
    "cue": 60561800,
    "direccion": "MONSEÑOR BLOIS Nº 1625",
    "lat": -34.54475145,
    "lng": -58.71510069
  },
  {
    "region": 10,
    "departamento": "CAÃ?UELAS",
    "localidad": "CAÃ?UELAS",
    "distrito": "CAÑUELAS",
    "escuela": "EEST Nº 1",
    "nombre": "CNEL. MANUEL DORREGO",
    "cue": 60825900,
    "direccion": "BASAVILBASO Nº 253",
    "lat": -35.05930745,
    "lng": -58.76020818
  },
  {
    "region": 10,
    "departamento": "GENERAL LAS HERAS",
    "localidad": "GRAL LAS HERAS",
    "distrito": "GRAL. LAS HERAS",
    "escuela": "EEST Nº 1",
    "nombre": "CORBETA URUGUAY",
    "cue": 60802700,
    "direccion": "NEUQUEN Nº 33",
    "lat": -34.93666249,
    "lng": -58.95122759
  },
  {
    "region": 10,
    "departamento": "GENERAL RODRIGUEZ",
    "localidad": "GRAL RODRIGUEZ",
    "distrito": "GRAL. RODRIGUEZ",
    "escuela": "EEST Nº 1",
    "nombre": "JAVIER TAPIÉ",
    "cue": 61047100,
    "direccion": "L. N. ALEM Y PTE PERÓN",
    "lat": -34.61807555,
    "lng": -58.95596375
  },
  {
    "region": 10,
    "departamento": "LUJAN",
    "localidad": "LUJAN",
    "distrito": "LUJÁN",
    "escuela": "EEST Nº 1",
    "nombre": "EDUARDO GUILLERMO OLIVER",
    "cue": 61000900,
    "direccion": "AV. ESPAÑA Nº 1151",
    "lat": -34.57456531,
    "lng": -59.11012954
  },
  {
    "region": 10,
    "departamento": "MARCOS PAZ",
    "localidad": "MARCOS PAZ",
    "distrito": "MARCOS PAZ",
    "escuela": "EEST Nº 1",
    "nombre": "JUAN XXIII",
    "cue": 60929900,
    "direccion": "BELGRANO Nº 2181",
    "lat": -34.78456456,
    "lng": -58.83918187
  },
  {
    "region": 10,
    "departamento": "MERCEDES",
    "localidad": "MERCEDES",
    "distrito": "MERCEDES",
    "escuela": "EEST Nº 1",
    "nombre": "NUESTRA SEÑORA DE LAS MERCEDES",
    "cue": 60960500,
    "direccion": "CALLE 31 Nº 51",
    "lat": -34.65902859,
    "lng": -59.43598934
  },
  {
    "region": 10,
    "departamento": "MERCEDES",
    "localidad": "GOWLAND",
    "distrito": "MERCEDES",
    "escuela": "EEST Nº 2",
    "nombre": "DR. LUIS FEDERICO LELOIR",
    "cue": 61713000,
    "direccion": "CALLE 509 Y 504",
    "lat": -34.6496098,
    "lng": -59.3593819
  },
  {
    "region": 10,
    "departamento": "NAVARRO",
    "localidad": "NAVARRO",
    "distrito": "NAVARRO",
    "escuela": "EEST Nº 1",
    "nombre": "GENERAL MANUEL SAVIO",
    "cue": 60200000,
    "direccion": "CALLE 18 Nº 350",
    "lat": -35.00409254,
    "lng": -59.27325091
  },
  {
    "region": 10,
    "departamento": "SAN ANDRES DE GILES",
    "localidad": "SAN ANDRES DE GI",
    "distrito": "SAN ANDRES DE GILES",
    "escuela": "EEST Nº 1",
    "nombre": "JORGE ALFREDO MACIEL",
    "cue": 60534300,
    "direccion": "ALSINA Nº 975",
    "lat": -34.44742524,
    "lng": -59.44169068
  },
  {
    "region": 11,
    "departamento": "CAMPANA",
    "localidad": "CAMPANA",
    "distrito": "CAMPANA",
    "escuela": "EEST Nº 1",
    "nombre": "LUCIANO REYES",
    "cue": 60582200,
    "direccion": "INTENDENTE MORO Nº 1122",
    "lat": -34.15646077,
    "lng": -58.96675887
  },
  {
    "region": 11,
    "departamento": "ESCOBAR",
    "localidad": "BELEN DE ESCOBAR",
    "distrito": "ESCOBAR",
    "escuela": "EEST Nº 1",
    "nombre": "CAPITÁN DE NAVIO HIPÓLITO BOUCHARD",
    "cue": 60775800,
    "direccion": "INDEPENDENCIA Nº 450",
    "lat": -34.35429585,
    "lng": -58.79894745
  },
  {
    "region": 11,
    "departamento": "ESCOBAR",
    "localidad": "GARIN",
    "distrito": "ESCOBAR",
    "escuela": "EEST Nº 2",
    "nombre": "S/N",
    "cue": 61015600,
    "direccion": "ING. P MARÍN S/N E YRIGOYEN",
    "lat": -34.46137574,
    "lng": -58.73812591
  },
  {
    "region": 11,
    "departamento": "ESCOBAR",
    "localidad": "MAQUINISTA F SAVIO",
    "distrito": "ESCOBAR",
    "escuela": "EEST Nº 3",
    "nombre": "EVA PERÓN",
    "cue": 61018900,
    "direccion": "JUAN  XXIII Nº 125",
    "lat": -34.4104602,
    "lng": -58.77168557
  },
  {
    "region": 11,
    "departamento": "ESCOBAR",
    "localidad": "GARIN",
    "distrito": "ESCOBAR",
    "escuela": "EEST Nº 4",
    "nombre": "S/N",
    "cue": 60721900,
    "direccion": "PUEYRREDÓN Nº 3150",
    "lat": -34.42695995,
    "lng": -58.74543901
  },
  {
    "region": 11,
    "departamento": "PILAR",
    "localidad": "PILAR",
    "distrito": "PILAR",
    "escuela": "EEST Nº 1",
    "nombre": "GRISELDA MAZETTELLE",
    "cue": 61045500,
    "direccion": "TUCUMÁN Nº 854",
    "lat": -34.45611257,
    "lng": -58.91696015
  },
  {
    "region": 11,
    "departamento": "PILAR",
    "localidad": "PRESIDENTE DERQU",
    "distrito": "PILAR",
    "escuela": "EEST Nº 2",
    "nombre": "SANTIAGO DERQUI",
    "cue": 61146800,
    "direccion": "O`HIGGINS Y LAS HERAS",
    "lat": -34.49561074,
    "lng": -58.8380448
  },
  {
    "region": 11,
    "departamento": "ZARATE",
    "localidad": "ZARATE",
    "distrito": "ZÁRATE",
    "escuela": "EEST Nº 1",
    "nombre": "ALMIRANTE GUILLERMO BROWN",
    "cue": 60610500,
    "direccion": "AVENIDA ANTA Nº 666",
    "lat": -34.09510433,
    "lng": -59.03849042
  },
  {
    "region": 11,
    "departamento": "ZARATE",
    "localidad": "ZARATE",
    "distrito": "ZÁRATE",
    "escuela": "EEST Nº 2",
    "nombre": "CNEL. DE MARINA TOMÁS ESPORA",
    "cue": 60577000,
    "direccion": "BELGRANO Nº 958",
    "lat": -34.09725421,
    "lng": -59.0255385
  },
  {
    "region": 11,
    "departamento": "ZARATE",
    "localidad": "ZARATE",
    "distrito": "ZÁRATE",
    "escuela": "EEST Nº 3",
    "nombre": "INGENIERO AGUSTÍN ROCCA",
    "cue": 60574100,
    "direccion": "BELGRANO Nº 758",
    "lat": -34.09629033,
    "lng": -59.02352821
  },
  {
    "region": 11,
    "departamento": "ZARATE",
    "localidad": "ZARATE",
    "distrito": "ZÁRATE",
    "escuela": "EEST Nº 4",
    "nombre": "S/N",
    "cue": 61700500,
    "direccion": "ESTRADA Nº 350",
    "lat": -34.11478464,
    "lng": -59.01030622
  },
  {
    "region": 12,
    "departamento": "ARRECIFES",
    "localidad": "ARRECIFES",
    "distrito": "ARRECIFES",
    "escuela": "EEST Nº 1",
    "nombre": "FRAY LUIS BELTRAN",
    "cue": 60897000,
    "direccion": "FRANCIA Nº 601",
    "lat": -34.06856553,
    "lng": -60.09805773
  },
  {
    "region": 12,
    "departamento": "BARADERO",
    "localidad": "BARADERO",
    "distrito": "BARADERO",
    "escuela": "EEST Nº 1",
    "nombre": "BATALLA DE LA VUELTA DE OBLIGADO",
    "cue": 61126600,
    "direccion": "BULNES Nº 844",
    "lat": -33.80690135,
    "lng": -59.49835105
  },
  {
    "region": 12,
    "departamento": "CAPITAN SARMIENTO",
    "localidad": "CAPITAN SARMIENT",
    "distrito": "CAPITÁN SARMIENTO",
    "escuela": "EEST Nº 1",
    "nombre": "SEGUNDO AGUSTÍN LUNA",
    "cue": 60529200,
    "direccion": "ITALIA Nº 324",
    "lat": -34.1739399,
    "lng": -59.79131513
  },
  {
    "region": 12,
    "departamento": "RAMALLO",
    "localidad": "VILLA RAMALLO",
    "distrito": "RAMALLO",
    "escuela": "EEST Nº 1",
    "nombre": "BONIFACIO VELAZQUEZ",
    "cue": 60991400,
    "direccion": "IRIGOYEN Nº 1249",
    "lat": -33.49560968,
    "lng": -60.05870872
  },
  {
    "region": 12,
    "departamento": "SAN NICOLAS",
    "localidad": "CONESA",
    "distrito": "SAN NICOLÁS",
    "escuela": "EEST Nº 1",
    "nombre": "JUAN BAUTISTA ALBERDI",
    "cue": 60184200,
    "direccion": "BELGRANO Nº 480",
    "lat": -33.59798411,
    "lng": -60.35342028
  },
  {
    "region": 12,
    "departamento": "SAN NICOLAS",
    "localidad": "SAN NICOLAS DE L",
    "distrito": "SAN NICOLÁS",
    "escuela": "EEST Nº 2",
    "nombre": "GENERAL INGENIERO MANUEL NICOLÁS SAVIO",
    "cue": 60760100,
    "direccion": "AV. MORENO Nº 74",
    "lat": -33.33512593,
    "lng": -60.22429079
  },
  {
    "region": 12,
    "departamento": "SAN NICOLAS",
    "localidad": "SAN NICOLAS DE L",
    "distrito": "SAN NICOLÁS",
    "escuela": "EEST Nº 3",
    "nombre": "JUAN BAUTISTA ALBERDI",
    "cue": 60758800,
    "direccion": "LEANDRO N. ALEM Nº 230 Y BOULEVARD FALCÓN ESQ COLÓN",
    "lat": -33.33150317,
    "lng": -60.20916101
  },
  {
    "region": 12,
    "departamento": "SAN NICOLAS",
    "localidad": "SAN NICOLAS DE L",
    "distrito": "SAN NICOLÁS",
    "escuela": "EEST Nº 4",
    "nombre": "ACUERDO DE SAN NICOLÁS DE LOS ARROYOS",
    "cue": 60738700,
    "direccion": "URQUIZA Nº 505",
    "lat": -33.32221155,
    "lng": -60.22944836
  },
  {
    "region": 12,
    "departamento": "SAN NICOLAS",
    "localidad": "LA EMILIA",
    "distrito": "SAN NICOLÁS",
    "escuela": "EEST Nº 5",
    "nombre": "JOSÉ ANTONIO BOCANERA",
    "cue": 60739000,
    "direccion": "HERMENEGILDO CORDOVA Nº 255",
    "lat": -33.35130754,
    "lng": -60.31813378
  },
  {
    "region": 12,
    "departamento": "SAN NICOLAS",
    "localidad": "SAN NICOLAS DE L",
    "distrito": "SAN NICOLÁS",
    "escuela": "EEST Nº 6",
    "nombre": "SIDERURGIA ARGENTINA",
    "cue": 60190600,
    "direccion": "AV. CENTRAL Nº 1925",
    "lat": -33.37936424,
    "lng": -60.17685953
  },
  {
    "region": 12,
    "departamento": "SAN PEDRO",
    "localidad": "SAN PEDRO",
    "distrito": "SAN PEDRO",
    "escuela": "EEST Nº 1",
    "nombre": "JUAN BAUTISTA AZOPARDO",
    "cue": 60594700,
    "direccion": "URUGUAY Y 3 DE FEBRERO Nº 1002",
    "lat": -33.68301457,
    "lng": -59.66248686
  },
  {
    "region": 13,
    "departamento": "COLON",
    "localidad": "COLON",
    "distrito": "COLÓN",
    "escuela": "EEST Nº 1",
    "nombre": "FORTÍN DE LAS MERCEDES",
    "cue": 61184700,
    "direccion": "CALLE 42 Y 25",
    "lat": -33.88438056,
    "lng": -61.09873727
  },
  {
    "region": 13,
    "departamento": "PERGAMINO",
    "localidad": "PERGAMINO",
    "distrito": "PERGAMINO",
    "escuela": "EEST Nº 1",
    "nombre": "S/N",
    "cue": 61152900,
    "direccion": "AV. DE MAYO Nº 1425",
    "lat": -33.89042237,
    "lng": -60.58052744
  },
  {
    "region": 13,
    "departamento": "PERGAMINO",
    "localidad": "PERGAMINO",
    "distrito": "PERGAMINO",
    "escuela": "EEST Nº 2",
    "nombre": "S/N",
    "cue": 61081000,
    "direccion": "FLORIDA Nº 545",
    "lat": -33.88993923,
    "lng": -60.58020024
  },
  {
    "region": 13,
    "departamento": "ROJAS",
    "localidad": "ROJAS",
    "distrito": "ROJAS",
    "escuela": "EEST Nº 1",
    "nombre": "DON LUIS BUSSALLIEU",
    "cue": 60775500,
    "direccion": "AV. LARREA Nº 455",
    "lat": -34.20274569,
    "lng": -60.7391966
  },
  {
    "region": 13,
    "departamento": "SALTO",
    "localidad": "SALTO",
    "distrito": "SALTO",
    "escuela": "EEST Nº 1",
    "nombre": "DR. ANTONIO ANGEL MONTES",
    "cue": 61165100,
    "direccion": "ARREDONDO Nº 857",
    "lat": -34.29127745,
    "lng": -60.24374417
  },
  {
    "region": 14,
    "departamento": "GENERAL PINTO",
    "localidad": "GENERAL PINTO",
    "distrito": "GRAL. PINTO",
    "escuela": "EEST Nº 1",
    "nombre": "FRAY LUIS BELTRÁN",
    "cue": 60660600,
    "direccion": "SAN MARTÍN Nº 980",
    "lat": -34.76007906,
    "lng": -61.89204476
  },
  {
    "region": 14,
    "departamento": "GENERAL VIAMONTE",
    "localidad": "LOS TOLDOS",
    "distrito": "GRAL.VIAMONTE",
    "escuela": "EEST Nº 1",
    "nombre": "EJERCITO ARGENTINO",
    "cue": 60339200,
    "direccion": "AV. SAN MARTÍN Nº 1655",
    "lat": -34.99532674,
    "lng": -61.0442602
  },
  {
    "region": 14,
    "departamento": "JUNIN",
    "localidad": "JUNIN",
    "distrito": "JUNÍN",
    "escuela": "EEST Nº 1",
    "nombre": "ANTONIO BERMEJO",
    "cue": 60557700,
    "direccion": "LEBENSOHN Nº 125",
    "lat": -34.59367046,
    "lng": -60.9413788
  },
  {
    "region": 14,
    "departamento": "JUNIN",
    "localidad": "JUNIN",
    "distrito": "JUNÍN",
    "escuela": "EEST Nº 2",
    "nombre": "PATRICIAS ARGENTINAS",
    "cue": 60557600,
    "direccion": "LEBENSOHN Nº 126",
    "lat": -34.59385278,
    "lng": -60.94299385
  },
  {
    "region": 14,
    "departamento": "LINCOLN",
    "localidad": "LINCOLN",
    "distrito": "LINCOLN",
    "escuela": "EEST Nº 1",
    "nombre": "JOSÉ MARÍA CANÉ",
    "cue": 60947300,
    "direccion": "MITRE Nº 256",
    "lat": -34.86916145,
    "lng": -61.52619217
  },
  {
    "region": 14,
    "departamento": "LINCOLN",
    "localidad": "LINCOLN",
    "distrito": "LINCON",
    "escuela": "EEST Nº 2",
    "nombre": "S/N",
    "cue": 61350000,
    "direccion": "ALVEAR Nº 297",
    "lat": -34.86902497,
    "lng": -61.52548385
  },
  {
    "region": 14,
    "departamento": "LEANDRO N ALEM",
    "localidad": "VEDIA",
    "distrito": "LEANDRO N. ALEM",
    "escuela": "EEST Nº 1",
    "nombre": "DR. BERNARDO ALBERTO HOUSSAY",
    "cue": 60624400,
    "direccion": "COMANDANTE ESCRIBANO Nº 574",
    "lat": -34.49831589,
    "lng": -61.53862327
  },
  {
    "region": 15,
    "departamento": "ALBERTI",
    "localidad": "ALBERTI",
    "distrito": "ALBERTI",
    "escuela": "EEST Nº 1",
    "nombre": "ALTE.  GUILLERMO BROWN",
    "cue": 60963600,
    "direccion": "AV. LIBERTADOR SAN MARTÍN Nº 180",
    "lat": -35.03063655,
    "lng": -60.28676123
  },
  {
    "region": 15,
    "departamento": "BRAGADO",
    "localidad": "BRAGADO",
    "distrito": "BRAGADO",
    "escuela": "EEST Nº 1",
    "nombre": "S/N",
    "cue": 60074100,
    "direccion": "CATAMARCA Nº 2050",
    "lat": -35.11440437,
    "lng": -60.47787921
  },
  {
    "region": 15,
    "departamento": "CARLOS CASARES",
    "localidad": "CARLOS CASARES",
    "distrito": "CARLOS CASARES",
    "escuela": "EEST Nº 1",
    "nombre": "S/N",
    "cue": 60480600,
    "direccion": "CATAMARCA Nº 186",
    "lat": -35.64059333,
    "lng": -61.3663534
  },
  {
    "region": 15,
    "departamento": "CHIVILCOY",
    "localidad": "CHIVILCOY",
    "distrito": "CHIVILCOY",
    "escuela": "EEST Nº 1",
    "nombre": "MARIANO MORENO",
    "cue": 60684300,
    "direccion": "PELLEGRINI Nº 338",
    "lat": -34.89085567,
    "lng": -60.01467492
  },
  {
    "region": 15,
    "departamento": "9 DE JULIO",
    "localidad": "9 DE JULIO",
    "distrito": "NUEVE DE JULIO",
    "escuela": "EEST Nº 1",
    "nombre": "OTTO KRAUSE",
    "cue": 61128300,
    "direccion": "GRAL PAZ Nº 1111",
    "lat": -35.45348498,
    "lng": -60.87639904
  },
  {
    "region": 15,
    "departamento": "9 DE JULIO",
    "localidad": "9 DE JULIO",
    "distrito": "NUEVE DE JULIO",
    "escuela": "EEST Nº 2",
    "nombre": "MERCEDES V. DE LABBE",
    "cue": 61151000,
    "direccion": "6500- 9 DE JULIO",
    "lat": -35.44540714,
    "lng": -60.87527156
  },
  {
    "region": 15,
    "departamento": "PEHUAJO",
    "localidad": "PEHUAJO",
    "distrito": "PEHUAJÓ",
    "escuela": "EEST Nº 1",
    "nombre": "PF. RODRIGUEZ JULIO",
    "cue": 60708900,
    "direccion": "PERÍTO MORENO Nº 860",
    "lat": -35.81929738,
    "lng": -61.91419998
  },
  {
    "region": 16,
    "departamento": "GENERAL VILLEGAS",
    "localidad": "GENERAL VILLEGAS",
    "distrito": "GRAL. VILLEGAS",
    "escuela": "EEST Nº 1",
    "nombre": "S/N",
    "cue": 60637700,
    "direccion": "ACCESO ARQ. CARROZZINº 1648",
    "lat": -35.03442949,
    "lng": -63.00347549
  },
  {
    "region": 16,
    "departamento": "RIVADAVIA",
    "localidad": "AMERICA",
    "distrito": "RIVADAVIA",
    "escuela": "EEST Nº 1",
    "nombre": "GHIGLIONE MARCO SILVIO",
    "cue": 60666500,
    "direccion": "PROF. JORGE NELSON PONCE S/N",
    "lat": -35.50382843,
    "lng": -62.97364405
  },
  {
    "region": 16,
    "departamento": "SALLIQUELO",
    "localidad": "SALLIQUELO",
    "distrito": "SALLIQUELO",
    "escuela": "EEST Nº 1",
    "nombre": "FRAY LUIS BELTRAN",
    "cue": 60713300,
    "direccion": "TRES DE FEBRERO Nº 50",
    "lat": -36.75480724,
    "lng": -62.96437273
  },
  {
    "region": 16,
    "departamento": "TRENQUE LAUQUEN",
    "localidad": "TRENQUE LAUQUEN",
    "distrito": "TRENQUE LAUQUEN",
    "escuela": "EEST Nº 1",
    "nombre": "CAMPAÑAS AL DESIERTO",
    "cue": 60982900,
    "direccion": "CARMEN GRANADA Nº 1153",
    "lat": -35.98487679,
    "lng": -62.7388995
  },
  {
    "region": 16,
    "departamento": "TRES LOMAS",
    "localidad": "TRES LOMAS",
    "distrito": "TRES LOMAS",
    "escuela": "EEST Nº 1",
    "nombre": "PROF. JORGE ALBERTO SBATO",
    "cue": 60387400,
    "direccion": "MORENO Nº 153",
    "lat": -36.46070063,
    "lng": -62.85611629
  },
  {
    "region": 17,
    "departamento": "CHASCOMUS",
    "localidad": "CHASCOMUS",
    "distrito": "CHASCOMÚS",
    "escuela": "EEST Nº 1",
    "nombre": "S/N",
    "cue": 60569400,
    "direccion": "PEDRO NICOLÁS ESCRIBANO Nº 352",
    "lat": -35.56623938,
    "lng": -58.01629337
  },
  {
    "region": 17,
    "departamento": "MONTE",
    "localidad": "SAN MIGUEL DEL M",
    "distrito": "SAN MIGUEL DEL MONTE",
    "escuela": "EEST Nº 1",
    "nombre": "RICARDO GUIRALDES",
    "cue": 60748300,
    "direccion": "PF. LAURA GIAGNACOVO Nº 1198",
    "lat": -35.43104304,
    "lng": -58.79623299
  },
  {
    "region": 17,
    "departamento": "RAUCH",
    "localidad": "RAUCH",
    "distrito": "RAUCH",
    "escuela": "EEST Nº 1",
    "nombre": "ISLAS MALVINAS",
    "cue": 60758300,
    "direccion": "CNEL. SUAREZ Nº 122",
    "lat": -36.77745131,
    "lng": -59.08825194
  },
  {
    "region": 18,
    "departamento": "AYACUCHO",
    "localidad": "AYACUCHO",
    "distrito": "AYACUCHO",
    "escuela": "EEST Nº 1",
    "nombre": "JUAN LABAT",
    "cue": 60950300,
    "direccion": "COLÓN Nº 1480",
    "lat": -37.14501802,
    "lng": -58.48861652
  },
  {
    "region": 18,
    "departamento": "DOLORES",
    "localidad": "DOLORES",
    "distrito": "DOLORES",
    "escuela": "EEST Nº 1",
    "nombre": "DELFOR DEL VALLE",
    "cue": 60249300,
    "direccion": "LAMADRID Nº 241",
    "lat": -36.31434843,
    "lng": -57.68512102
  },
  {
    "region": 18,
    "departamento": "GENERAL JUAN MADARIAGA",
    "localidad": "GENERAL JUAN MAD",
    "distrito": "GRAL. MADARIAGA",
    "escuela": "EEST Nº 1",
    "nombre": "15 DE NOVIEMBRE",
    "cue": 60959500,
    "direccion": "AVENIDA BUENOS AIRES Nº 684",
    "lat": -36.99280251,
    "lng": -57.13065736
  },
  {
    "region": 18,
    "departamento": "LA COSTA",
    "localidad": "SANTA TERESITA",
    "distrito": "LA COSTA",
    "escuela": "EEST Nº 1",
    "nombre": "RAÚL ESCALABRINI ORTIZ",
    "cue": 60826400,
    "direccion": "104 Y 124",
    "lat": -36.52965601,
    "lng": -56.71462858
  },
  {
    "region": 18,
    "departamento": "PINAMAR",
    "localidad": "PINAMAR",
    "distrito": "PINAMAR",
    "escuela": "EEST Nº 1",
    "nombre": "CRUCERO GRAL. BELGRANO",
    "cue": 61197100,
    "direccion": "AV. INTERMÉDANOS S/N",
    "lat": -37.11479819,
    "lng": -56.8809197
  },
  {
    "region": 19,
    "departamento": "GENERAL ALVARADO",
    "localidad": "MIRAMAR",
    "distrito": "GRAL. ALVARADO",
    "escuela": "EEST Nº 1",
    "nombre": "S/N",
    "cue": 60380200,
    "direccion": "PASEO LELOIR Nº 907",
    "lat": -38.26713227,
    "lng": -57.82673353
  },
  {
    "region": 19,
    "departamento": "GENERAL PUEYRREDON",
    "localidad": "MAR DEL PLATA",
    "distrito": "GRAL. PUEYRREDÓN",
    "escuela": "EEST Nº 1",
    "nombre": "COMANDANTE LUIS PIEDRA BUENA",
    "cue": 61170500,
    "direccion": "12 DE OCTUBRE Nº 3384",
    "lat": -38.04558412,
    "lng": -57.54640743
  },
  {
    "region": 19,
    "departamento": "GENERAL PUEYRREDON",
    "localidad": "MAR DEL PLATA",
    "distrito": "GRAL. PUEYRREDÓN",
    "escuela": "EEST Nº 2",
    "nombre": "S/N",
    "cue": 60593300,
    "direccion": "SAN LUIS Nº 1455",
    "lat": -37.99918331,
    "lng": -57.54681282
  },
  {
    "region": 19,
    "departamento": "GENERAL PUEYRREDON",
    "localidad": "MAR DEL PLATA",
    "distrito": "GRAL. PUEYRREDÓN",
    "escuela": "EEST Nº 3",
    "nombre": "DOMINGO FAUSTINO SARMIENTO",
    "cue": 60597100,
    "direccion": "14 DE JULIO Nº 2550",
    "lat": -38.00373059,
    "lng": -57.56243596
  },
  {
    "region": 19,
    "departamento": "GENERAL PUEYRREDON",
    "localidad": "MAR DEL PLATA",
    "distrito": "GRAL. PUEYRREDÓN",
    "escuela": "EEST Nº 4",
    "nombre": "ALFONSINA STORNI",
    "cue": 60907700,
    "direccion": "AV. JARA Nº 861",
    "lat": -37.9827358,
    "lng": -57.56504484
  },
  {
    "region": 19,
    "departamento": "GENERAL PUEYRREDON",
    "localidad": "MAR DEL PLATA",
    "distrito": "GRAL. PUEYRREDÓN",
    "escuela": "EEST Nº 5",
    "nombre": "AMANCIO WILLIAMS",
    "cue": 60622400,
    "direccion": "AV. JUAN B. JUSTO Nº 4287",
    "lat": -38.014842,
    "lng": -57.57925172
  },
  {
    "region": 20,
    "departamento": "BALCARCE",
    "localidad": "BALCARCE",
    "distrito": "BALCARCE",
    "escuela": "EEST Nº 1",
    "nombre": "LUCAS KRALIEVICH",
    "cue": 60619300,
    "direccion": "CALLE 31 Nº 928",
    "lat": -37.85745337,
    "lng": -58.25744209
  },
  {
    "region": 20,
    "departamento": "NECOCHEA",
    "localidad": "NECOCHEA",
    "distrito": "NECOCHEA",
    "escuela": "EEST Nº 1",
    "nombre": "ING. MARIO A. ELPUERTO",
    "cue": 60986600,
    "direccion": "CALLE 47 Nº 2680",
    "lat": -38.5485681,
    "lng": -58.73484978
  },
  {
    "region": 20,
    "departamento": "NECOCHEA",
    "localidad": "NECOCHEA",
    "distrito": "NECOCHEA",
    "escuela": "EEST Nº 2",
    "nombre": "GENERAL MARINAO NECOCHEA",
    "cue": 60677300,
    "direccion": "JESUITA CARDIEL Y 46",
    "lat": -38.55424174,
    "lng": -58.72850979
  },
  {
    "region": 20,
    "departamento": "NECOCHEA",
    "localidad": "NECOCHEA",
    "distrito": "NECOCHEA",
    "escuela": "EEST Nº 3",
    "nombre": "S/N",
    "cue": 60836500,
    "direccion": "CALLE 73 Nº 1558",
    "lat": -38.56824495,
    "lng": -58.73472569
  },
  {
    "region": 20,
    "departamento": "TANDIL",
    "localidad": "TANDIL",
    "distrito": "TANDIL",
    "escuela": "EEST Nº 1",
    "nombre": "VI BRIGADA AÉREA",
    "cue": 60619700,
    "direccion": "COLECTORA NORTE LUIS M. MACAYA Nº 2094",
    "lat": -37.30393252,
    "lng": -59.12235009
  },
  {
    "region": 20,
    "departamento": "TANDIL",
    "localidad": "TANDIL",
    "distrito": "TANDIL",
    "escuela": "EEST Nº 2",
    "nombre": "INGENIERO FELIPE SENILLOSA",
    "cue": 61351200,
    "direccion": "ALEM Nº 285",
    "lat": -37.33026756,
    "lng": -59.13012056
  },
  {
    "region": 20,
    "departamento": "TANDIL",
    "localidad": "TANDIL",
    "distrito": "TANDIL",
    "escuela": "EEST Nº 3",
    "nombre": "DR. NORBERTO PIÑERO",
    "cue": 61022200,
    "direccion": "HIPÓLITO YRIGOYEN Nº 636",
    "lat": -37.32692284,
    "lng": -59.13800789
  },
  {
    "region": 20,
    "departamento": "TANDIL",
    "localidad": "GARDEY",
    "distrito": "TANDIL",
    "escuela": "EEST Nº 4",
    "nombre": "JOSE HERNANDEZ",
    "cue": 60650100,
    "direccion": "AV. 13 Nº 679",
    "lat": -37.2827094,
    "lng": -59.3608294
  },
  {
    "region": 20,
    "departamento": "TANDIL",
    "localidad": "TANDIL",
    "distrito": "TANDIL",
    "escuela": "EEST Nº 5",
    "nombre": "JUAN DOMINGO PERÓN",
    "cue": 60573100,
    "direccion": "AV. PERÓN Nº 937",
    "lat": -37.32542869,
    "lng": -59.14608393
  },
  {
    "region": 21,
    "departamento": "BENITO JUAREZ",
    "localidad": "BENITO JUAREZ",
    "distrito": "BENITO JUAREZ",
    "escuela": "EEST Nº 1",
    "nombre": "REPÚBLICA DE MÉXICO",
    "cue": 60960300,
    "direccion": "CONSTITUCIÓN Nº 228",
    "lat": -37.67373761,
    "lng": -59.81455854
  },
  {
    "region": 21,
    "departamento": "CORONEL DORREGO",
    "localidad": "CORONEL DORREGO",
    "distrito": "CNEL. DORREGO",
    "escuela": "EEST Nº 1",
    "nombre": "ALMIRANTE GUILLERMO BROWN",
    "cue": 60991100,
    "direccion": "PRESIDENTE PERÓN Nº 1077",
    "lat": -38.71732095,
    "lng": -61.2885004
  },
  {
    "region": 21,
    "departamento": "CORONEL PRINGLES",
    "localidad": "CORONEL PRINGLES",
    "distrito": "CORONEL PRINGLES",
    "escuela": "EEST Nº 1",
    "nombre": "S/N",
    "cue": 61119500,
    "direccion": "CABRERA Nº 1140",
    "lat": -37.98539929,
    "lng": -61.35600617
  },
  {
    "region": 22,
    "departamento": "BAHIA BLANCA",
    "localidad": "INGENIERO WHITE",
    "distrito": "BAHÍA BLANCA",
    "escuela": "EEST Nº 1",
    "nombre": "CURCERO ARA GENERAL BELGRANO",
    "cue": 61123900,
    "direccion": "CABRAL Y TARIJA",
    "lat": -38.77541012,
    "lng": -62.26976511
  },
  {
    "region": 22,
    "departamento": "BAHIA BLANCA",
    "localidad": "BAHIA BLANCA",
    "distrito": "BAHÍA BLANCA",
    "escuela": "EEST Nº 2",
    "nombre": "ING. CESAR CIPOLLETTI",
    "cue": 60892400,
    "direccion": "AZARA Nº 1250",
    "lat": -38.71405223,
    "lng": -62.2449239
  },
  {
    "region": 22,
    "departamento": "BAHIA BLANCA",
    "localidad": "BAHIA BLANCA",
    "distrito": "BAHÍA BLANCA",
    "escuela": "EEST Nº 3",
    "nombre": "DOCTOR RENÉ FAVALORO",
    "cue": 60714600,
    "direccion": "CHARLON Nº 347",
    "lat": -38.71351614,
    "lng": -62.28322933
  },
  {
    "region": 22,
    "departamento": "BAHIA BLANCA",
    "localidad": "BAHIA BLANCA",
    "distrito": "BAHÍA BLANCA",
    "escuela": "EEST Nº 4",
    "nombre": "ANTÁRTIDA",
    "cue": 60787500,
    "direccion": "FLORIDA Nº 633",
    "lat": -38.69670005,
    "lng": -62.2770326
  },
  {
    "region": 22,
    "departamento": "CORONEL DE MARINA L ROSALES",
    "localidad": "PUNTA ALTA",
    "distrito": "CORONEL ROSALES",
    "escuela": "EEST Nº 1",
    "nombre": "ALMIRANTE RAMÓN GONZALEZ FERNANDEZ",
    "cue": 61191800,
    "direccion": "PASAJE GUTIERREZ S/N",
    "lat": -38.8878242,
    "lng": -62.07745633
  },
  {
    "region": 23,
    "departamento": "DAIREAUX",
    "localidad": "DAIREAUX",
    "distrito": "DAIREAUX",
    "escuela": "EEST Nº 1",
    "nombre": "CEFERINO NAMUNCURÁ",
    "cue": 60725400,
    "direccion": "MARCHELLETTI Nº 4",
    "lat": -36.60049318,
    "lng": -61.74541787
  },
  {
    "region": 23,
    "departamento": "PUAN",
    "localidad": "PUAN",
    "distrito": "PUÁN",
    "escuela": "EEST Nº 1",
    "nombre": "ANGELA ALMEYRA",
    "cue": 61081200,
    "direccion": "AV. ALEM Y NECOCHEA",
    "lat": -37.54181567,
    "lng": -62.76311511
  },
  {
    "region": 23,
    "departamento": "SAAVEDRA",
    "localidad": "PIGÂ?E",
    "distrito": "SAAVEDRA",
    "escuela": "EEST Nº 1",
    "nombre": "OCTAVIO FEDERICO DUCOS",
    "cue": 60595900,
    "direccion": "FRANCIA Nº 300",
    "lat": -37.60050714,
    "lng": -62.40075258
  },
  {
    "region": 24,
    "departamento": "25 DE MAYO",
    "localidad": "25 DE MAYO",
    "distrito": "25 DE MAYO",
    "escuela": "EEST Nº 1",
    "nombre": "S/N",
    "cue": 60560000,
    "direccion": "18 ENTRE 35 Y 36 Nº 1648",
    "lat": -35.42920869,
    "lng": -60.18295466
  },
  {
    "region": 24,
    "departamento": "LAS FLORES",
    "localidad": "LAS FLORES",
    "distrito": "LAS FLORES",
    "escuela": "EEST Nº 1",
    "nombre": "GENERAL MANUEL BELGRANO",
    "cue": 60953800,
    "direccion": "AVELLANEDA Nº 687",
    "lat": -36.02078574,
    "lng": -59.1015089
  },
  {
    "region": 24,
    "departamento": "LOBOS",
    "localidad": "LOBOS",
    "distrito": "LOBOS",
    "escuela": "EEST Nº 1",
    "nombre": "GENERAL ENRIQUE MOSCONI",
    "cue": 60797500,
    "direccion": "CARDONE Nº 951",
    "lat": -35.17710513,
    "lng": -59.09353734
  },
  {
    "region": 24,
    "departamento": "ROQUE PEREZ",
    "localidad": "ROQUE PEREZ",
    "distrito": "ROQUE PEREZ",
    "escuela": "EEST Nº 1",
    "nombre": "S/N",
    "cue": 60705200,
    "direccion": "MITRE Y AUSSEDAT",
    "lat": -35.39769916,
    "lng": -59.33112947
  },
  {
    "region": 24,
    "departamento": "SALADILLO",
    "localidad": "SALADILLO",
    "distrito": "SALADILLO",
    "escuela": "EEST Nº 1",
    "nombre": "GENERAL SAVIO",
    "cue": 60950200,
    "direccion": "JOAQUÍN V. GONZALEZ Nº 3013",
    "lat": -35.64461826,
    "lng": -59.78224919
  },
  {
    "region": 25,
    "departamento": "AZUL",
    "localidad": "AZUL",
    "distrito": "AZUL",
    "escuela": "EEST Nº 1",
    "nombre": "CORONEL PEDRO BURGOS",
    "cue": 60928000,
    "direccion": "AV. 25 DE MAYO Nº 451 NORTE",
    "lat": -36.76519991,
    "lng": -59.84266256
  },
  {
    "region": 25,
    "departamento": "AZUL",
    "localidad": "AZUL",
    "distrito": "AZUL",
    "escuela": "EEST Nº 2",
    "nombre": "VICENTE PEREDA",
    "cue": 60956800,
    "direccion": "BELGRANO Nº 400",
    "lat": -36.77531746,
    "lng": -59.86262348
  },
  {
    "region": 25,
    "departamento": "BOLIVAR",
    "localidad": "SAN CARLOS DE BO",
    "distrito": "BOLIVAR",
    "escuela": "EEST Nº 1",
    "nombre": "LIBERTADOR SIMON BOLIVAR",
    "cue": 60704600,
    "direccion": "CENTENARIO Y CASTELLÁ",
    "lat": -36.21995795,
    "lng": -61.11803161
  },
  {
    "region": 25,
    "departamento": "OLAVARRIA",
    "localidad": "OLAVARRIA",
    "distrito": "OLAVARRÍA",
    "escuela": "EEST Nº 1",
    "nombre": "DOCTOR RENÉ FAVALORO",
    "cue": 60948000,
    "direccion": "AV. PRESIDENTE PERÓN Y RÍO NEGRO",
    "lat": -36.92216173,
    "lng": -60.32159945
  },
  {
    "region": 25,
    "departamento": "OLAVARRIA",
    "localidad": "OLAVARRIA",
    "distrito": "OLAVARRÍA",
    "escuela": "EEST Nº 2",
    "nombre": "LUCIANO FORTABAT",
    "cue": 60337300,
    "direccion": "AV. DEL VALLE Nº 5201",
    "lat": -36.91329498,
    "lng": -60.30781531
  }
]